City,Lat,Lng,Max Temp,Humidity,Cloudiness,Wind Speed,Country,Date,Max Temp (F)
Chokurdakh,70.63,147.92,279.83,57,6,5.56,RU,1591829852,44.02
Alofi,-19.06,-169.92,299.15,83,75,1.5,NU,1591829852,78.8
Philadelphia,39.95,-75.16,304.26,58,75,7.7,US,1591829588,88.0
Vaini,-21.2,-175.2,298.15,94,75,5.7,TO,1591829853,77.0
Flinders,-34.58,150.86,286.48,97,49,0.45,AU,1591829629,55.99
Saint Anthony,45.02,-93.22,295.15,40,75,7.7,US,1591829631,71.6
Gainesville,29.65,-82.32,300.15,94,75,3.1,US,1591829755,80.6
Yaring,6.87,101.37,299.68,82,91,1.88,TH,1591829853,79.75
Biloela,-24.42,150.5,292.0,81,93,5.41,AU,1591829853,65.93
Busselton,-33.65,115.33,288.71,86,89,6.18,AU,1591829854,60.01
Castro,-24.79,-50.01,290.67,95,64,3.0,BR,1591829854,63.54
Saskylakh,71.92,114.08,284.37,42,0,6.06,RU,1591829854,52.2
Rikitea,-23.12,-134.97,297.54,83,16,6.94,PF,1591829854,75.9
Hobart,-42.88,147.33,282.59,81,75,4.1,AU,1591829734,48.99
Bethel,41.37,-73.41,297.15,73,40,6.7,US,1591829748,75.2
Hilo,19.73,-155.09,300.15,74,90,5.7,US,1591829855,80.6
Carauari,-4.88,-66.9,299.48,67,25,0.62,BR,1591829855,79.39
Ushuaia,-54.8,-68.3,273.15,95,75,10.8,AR,1591829626,32.0
Bella Vista,36.43,-94.23,298.71,44,1,4.6,US,1591829856,78.01
Kuusamo,65.97,29.18,282.15,93,9,1.0,FI,1591829856,48.2
Marsabit,2.33,37.99,290.74,83,32,6.02,KE,1591829856,63.66
Port-Gentil,-0.72,8.78,298.15,88,40,5.1,GA,1591829856,77.0
Mataura,-46.19,168.86,285.93,63,17,3.58,NZ,1591829856,55.0
Tuktoyaktuk,69.45,-133.04,277.15,93,90,2.6,CA,1591829856,39.2
Araouane,18.9,-3.53,311.5,16,66,5.79,ML,1591829857,101.03
Mar del Plata,-38.0,-57.56,284.82,76,0,1.25,AR,1591829857,53.01
Puerto del Rosario,28.5,-13.86,295.15,68,40,8.2,ES,1591829704,71.6
Bentiu,9.23,29.83,298.93,69,83,2.35,SS,1591829857,78.4
Ribeira Grande,38.52,-28.7,290.61,82,31,9.59,PT,1591829857,63.43
Punta Arenas,-53.15,-70.92,274.15,80,20,9.3,CL,1591829732,33.8
Tegul'det,57.31,88.17,283.28,92,84,3.13,RU,1591829858,50.23
Albany,42.6,-73.97,301.48,61,100,2.24,US,1591829858,82.99
Sitka,57.05,-135.33,289.15,48,75,6.7,US,1591829858,60.8
Upernavik,72.79,-56.15,274.44,89,80,6.65,GL,1591829858,34.32
Coolum Beach,-26.53,153.1,293.15,90,8,1.34,AU,1591829859,68.0
Hamilton,39.18,-84.53,304.15,55,20,8.7,US,1591829575,87.8
Puerto Ayora,-0.74,-90.35,301.15,54,20,7.7,EC,1591829859,82.4
Qaanaaq,77.48,-69.36,274.21,84,0,0.35,GL,1591829859,33.91
Pisco,-13.7,-76.22,293.15,72,78,3.6,PE,1591829859,68.0
Saurimo,-9.66,20.39,290.22,47,88,1.68,AO,1591829860,62.73
Cidreira,-30.18,-50.21,290.61,95,99,6.66,BR,1591829860,63.43
Sept-Îles,50.2,-66.38,283.71,67,90,5.1,CA,1591829860,51.01
High Level,58.52,-117.14,291.15,48,40,2.6,CA,1591829860,64.4
Palmer,42.16,-72.33,299.82,61,90,4.1,US,1591829860,80.01
Khatanga,71.97,102.5,283.17,83,100,3.39,RU,1591829861,50.04
Poum,-20.23,164.02,297.34,74,28,8.24,NC,1591829862,75.54
Katsuura,35.13,140.3,298.15,88,75,11.3,JP,1591829862,77.0
Half Moon Bay,37.46,-122.43,301.15,39,40,4.1,US,1591829862,82.4
Fort Nelson,58.81,-122.7,294.15,37,75,1.0,CA,1591829775,69.8
Bredasdorp,-34.53,20.04,282.15,87,60,7.43,ZA,1591829863,48.2
Jamestown,42.1,-79.24,303.15,58,20,7.7,US,1591829863,86.0
Jardim,-21.48,-56.14,297.68,69,0,2.25,BR,1591829863,76.15
Vanimo,-2.67,141.3,300.97,71,56,2.0,PG,1591829863,82.08
Lianyuan,27.69,111.66,297.35,90,96,0.74,CN,1591829863,75.56
Port Lincoln,-34.73,135.87,284.07,50,81,2.15,AU,1591829864,51.66
Wenling,28.37,121.36,300.37,100,99,2.13,CN,1591829864,81.0
Namtsy,62.72,129.67,286.15,76,56,1.0,RU,1591829864,55.4
Maceió,-9.67,-35.74,297.15,94,20,0.5,BR,1591829775,75.2
Narón,43.52,-8.15,288.71,82,75,2.1,ES,1591829864,60.01
Port Alfred,-33.59,26.89,290.93,45,24,3.13,ZA,1591829644,64.0
Nikolskoye,59.7,30.79,290.15,77,40,2.0,RU,1591829865,62.6
Kapaa,22.08,-159.32,299.15,78,75,6.7,US,1591829748,78.8
Aklavik,68.22,-135.01,287.15,67,40,2.1,CA,1591829865,57.2
Longfeng,46.55,125.12,290.9,58,5,7.33,CN,1591829866,63.95
Nome,64.5,-165.41,281.48,86,75,2.6,US,1591829866,46.99
Harper,4.38,-7.72,297.88,89,100,2.34,LR,1591829866,76.51
Bengkulu,-3.8,102.27,298.14,85,43,1.95,ID,1591829866,76.98
Lorengau,-2.02,147.27,302.33,69,63,1.09,PG,1591829866,84.52
Teluk Nibung,3.0,99.82,298.15,94,100,2.2,ID,1591829867,77.0
Saint-Philippe,-21.36,55.77,294.15,82,75,8.7,RE,1591829867,69.8
Tondano,1.3,124.91,297.15,100,40,1.5,ID,1591829867,75.2
Watsa,3.04,29.54,290.55,100,100,1.39,CD,1591829867,63.32
Faya,18.39,42.45,295.15,64,49,0.6,SA,1591829867,71.6
Santa Marta,11.24,-74.2,299.34,80,100,3.32,CO,1591829751,79.14
Eskil,38.4,33.41,293.84,48,27,2.03,TR,1591829868,69.24
Kaitangata,-46.28,169.85,287.59,42,100,3.36,NZ,1591829868,57.99
Kalemie,-5.95,29.19,294.39,70,10,0.66,CD,1591829868,70.23
Vila Velha,-20.33,-40.29,299.15,65,0,2.6,BR,1591829665,78.8
Wufeng,27.45,104.83,289.8,99,46,0.67,CN,1591829869,61.97
Norman Wells,65.28,-126.83,292.15,42,75,5.1,CA,1591829869,66.2
Touros,-5.2,-35.46,298.15,94,75,3.6,BR,1591829869,77.0
Tual,-5.67,132.75,300.03,84,59,8.73,ID,1591829869,80.38
Esperance,-33.87,121.9,288.15,38,98,7.2,AU,1591829869,59.0
Korla,41.76,86.15,294.26,60,11,3.13,CN,1591829870,70.0
Atuona,-9.8,-139.03,300.1,77,24,8.96,PF,1591829870,80.51
Sinnamary,5.38,-52.95,299.19,83,56,3.81,GF,1591829870,78.87
Clyde River,70.47,-68.59,271.15,92,75,7.7,CA,1591829870,28.4
Keti Bandar,24.14,67.45,301.99,81,15,6.44,PK,1591829871,83.91
Lebu,-37.62,-73.65,285.13,89,100,8.07,CL,1591829871,53.56
Hauterive,46.09,3.45,287.15,67,75,1.0,FR,1591829871,57.2
Zhigansk,66.77,123.37,279.66,62,100,5.66,RU,1591829871,43.72
Saint George,37.1,-113.58,307.04,9,1,2.1,US,1591829871,93.0
Morondava,-20.28,44.28,294.86,55,0,6.18,MG,1591829872,71.08
Bayan,46.08,127.4,289.82,69,72,5.96,CN,1591829872,62.01
Misawa,40.68,141.36,294.26,77,75,3.6,JP,1591829665,70.0
New Norfolk,-42.78,147.06,282.59,89,100,0.75,AU,1591829873,48.99
Chui,-33.7,-53.46,284.23,92,31,1.8,UY,1591829873,51.94
Hermanus,-34.42,19.23,282.04,90,76,13.55,ZA,1591829874,48.0
Khani,41.96,42.96,296.15,78,98,5.1,GE,1591829874,73.4
Ilulissat,69.22,-51.1,282.15,61,95,7.2,GL,1591829874,48.2
Hasaki,35.73,140.83,300.37,74,75,7.2,JP,1591829874,81.0
Shkurinskaya,46.59,39.36,294.68,74,0,3.5,RU,1591829874,70.75
Thompson,55.74,-97.86,280.15,75,75,5.1,CA,1591829703,44.6
Mairi,-11.71,-40.15,293.69,95,36,3.46,BR,1591829643,68.97
Nizhnyaya Poyma,56.16,97.19,283.48,80,96,3.84,RU,1591829875,50.59
Makakilo City,21.35,-158.09,303.15,61,90,3.6,US,1591829875,86.0
Tasiilaq,65.61,-37.64,277.15,86,100,17.0,GL,1591829875,39.2
Barrow,71.29,-156.79,274.15,86,90,4.6,US,1591829876,33.8
Berlevåg,70.86,29.09,279.18,77,57,9.29,NO,1591829876,42.85
Sittwe,20.15,92.9,301.7,81,100,7.4,MM,1591829876,83.39
Avarua,-21.21,-159.78,300.15,69,65,4.6,CK,1591829876,80.6
Roald,62.58,6.13,285.37,87,20,5.7,NO,1591829876,54.0
Port Elizabeth,-33.92,25.57,290.15,42,73,6.2,ZA,1591829877,62.6
Atyrau,47.12,51.88,296.15,27,0,4.0,KZ,1591829877,73.4
Hithadhoo,-0.6,73.08,302.06,75,100,5.23,MV,1591829877,84.04
Ca Mau,9.18,105.15,299.1,85,100,1.81,VN,1591829877,78.71
Chuguyevka,44.17,133.86,294.81,61,65,4.71,RU,1591829877,70.99
Husavik,66.04,-17.34,285.15,76,39,4.6,IS,1591829878,53.6
Nuuk,64.18,-51.72,276.15,93,100,3.1,GL,1591829878,37.4
Lüderitz,-26.65,15.16,286.15,93,0,1.5,NA,1591829878,55.4
Yatou,37.15,122.38,293.52,91,90,3.31,CN,1591829878,68.67
Preston,53.77,-2.72,285.37,85,72,1.34,GB,1591829817,54.0
Wellington,-41.29,174.78,287.15,62,72,8.7,NZ,1591829604,57.2
Hong Kong,22.29,114.16,302.04,74,81,2.24,HK,1591829789,84.0
Caravelas,-17.71,-39.25,295.7,93,0,2.55,BR,1591829880,72.59
Robe,-37.18,139.75,284.91,77,77,3.74,AU,1591829880,53.17
Brigantine,39.41,-74.36,300.15,65,1,9.8,US,1591829881,80.6
Beyneu,45.32,55.2,299.71,19,0,3.22,KZ,1591829881,79.81
Kingsville,27.52,-97.86,305.15,43,20,7.2,US,1591829881,89.6
Raudeberg,61.99,5.14,285.37,83,17,5.65,NO,1591829881,54.0
Pingliang,35.54,106.69,289.56,81,100,4.07,CN,1591829882,61.54
Skjervøy,70.03,20.97,280.69,77,100,3.8,NO,1591829882,45.57
Faanui,-16.48,-151.75,300.37,81,15,7.87,PF,1591829882,81.0
Ranong,9.97,98.63,299.34,77,83,0.72,TH,1591829882,79.14
Newtownards,54.59,-5.69,285.37,93,100,5.7,GB,1591829882,54.0
Laguna,38.42,-121.42,309.82,20,1,2.71,US,1591829669,98.01
Nanortalik,60.14,-45.24,276.93,84,100,6.68,GL,1591829883,38.8
Cape Town,-33.93,18.42,284.82,57,20,4.1,ZA,1591829415,53.01
George Town,5.41,100.34,300.15,94,20,1.5,MY,1591829883,80.6
São Filipe,14.9,-24.5,297.41,84,0,2.47,CV,1591829884,75.67
Stornoway,58.21,-6.39,284.15,87,42,6.7,GB,1591829884,51.8
Yulara,-25.24,130.99,278.15,48,75,2.6,AU,1591829884,41.0
Marawi,8.0,124.29,297.04,91,97,1.79,PH,1591829884,75.0
Lompoc,34.64,-120.46,299.26,49,0,6.7,US,1591829847,79.0
Bluff,-46.6,168.33,285.93,63,27,3.58,NZ,1591829885,55.0
Fort Abbas,29.19,72.85,309.84,26,0,5.22,PK,1591829885,98.04
Galicea,44.92,24.28,289.81,95,100,3.12,RO,1591829885,61.99
Oddur,4.12,43.89,295.48,75,35,7.0,SO,1591829886,72.19
Kavieng,-2.57,150.8,302.33,75,97,4.48,PG,1591829886,84.52
Ulaangom,49.98,92.07,282.56,51,78,2.17,MN,1591829886,48.94
Port Hawkesbury,45.62,-61.35,284.15,57,1,4.1,CA,1591829886,51.8
Padang,-0.95,100.35,299.02,76,95,1.51,ID,1591829887,78.57
St. George's,12.06,-61.75,301.15,78,20,5.1,GD,1591829638,82.4
Chhabra,24.67,76.83,304.45,43,2,3.91,IN,1591829887,88.34
Deputatsky,69.3,139.9,278.38,68,96,3.03,RU,1591829887,41.41
Río Gallegos,-51.62,-69.22,273.15,85,20,7.7,AR,1591829887,32.0
Narsaq,60.92,-46.05,277.15,80,100,3.1,GL,1591829888,39.2
Kangaatsiaq,68.31,-53.46,274.82,95,100,5.43,GL,1591829888,35.01
Newport,51.59,-3.0,285.93,96,99,4.2,GB,1591829888,55.0
Gaziantep,37.06,37.38,290.15,63,0,4.78,TR,1591829810,62.6
Pukë,42.04,19.9,291.15,82,95,1.5,AL,1591829888,64.4
El Alto,-4.27,-81.21,291.79,83,3,7.11,PE,1591829889,65.55
Longyearbyen,78.22,15.64,280.15,75,40,4.6,SJ,1591829889,44.6
Bambous Virieux,-20.34,57.76,295.15,73,75,8.2,MU,1591829889,71.6
Ambon City,-3.7,128.18,300.37,99,73,3.58,ID,1591829890,81.0
East London,-33.02,27.91,292.52,40,68,7.76,ZA,1591829890,66.87
Cayenne,4.93,-52.33,299.15,94,28,3.36,GF,1591829639,78.8
Manjacaze,-24.71,33.88,291.89,87,8,4.18,MZ,1591829890,65.73
Saldanha,-33.01,17.94,285.15,66,75,3.6,ZA,1591829891,53.6
Piaçabuçu,-10.41,-36.43,297.82,87,1,3.62,BR,1591829891,76.41
Porbandar,21.64,69.61,302.74,77,0,5.24,IN,1591829891,85.26
Saint-Raphaël,19.43,-72.2,297.76,80,70,2.56,HT,1591829891,76.3
Cherskiy,68.75,161.3,279.92,75,100,0.61,RU,1591829891,44.19
Tocopilla,-22.09,-70.2,289.23,73,99,1.81,CL,1591829892,60.94
Alice Springs,-23.7,133.88,277.15,60,15,2.1,AU,1591829892,39.2
Butaritari,3.07,172.79,301.62,75,100,5.71,KI,1591829892,83.25
Mahébourg,-20.41,57.7,295.15,73,75,8.2,MU,1591829892,71.6
Moranbah,-22.0,148.05,291.29,79,15,6.17,AU,1591829893,64.65
Urengoy,65.97,78.37,280.62,58,37,7.25,RU,1591829893,45.45
Swift Current,50.28,-107.8,294.15,28,75,8.7,CA,1591829726,69.8
Acapulco de Juárez,16.86,-99.89,303.15,70,40,4.1,MX,1591829893,86.0
Dikson,73.51,80.55,274.29,95,100,8.88,RU,1591829893,34.05
Dunedin,-45.87,170.5,287.59,40,100,3.53,NZ,1591829893,57.99
Mananjary,-21.22,48.33,292.68,83,10,2.94,MG,1591829894,67.15
Coyhaique,-45.58,-72.07,279.15,87,90,2.6,CL,1591829894,42.8
Arraial do Cabo,-22.97,-42.03,296.95,82,42,0.24,BR,1591829611,74.84
Tiarei,-17.53,-149.33,304.15,66,75,5.1,PF,1591829894,87.8
Vila Franca do Campo,37.72,-25.43,291.15,77,75,5.1,PT,1591829894,64.4
Sørland,67.67,12.69,281.01,84,10,8.43,NO,1591829895,46.15
Cockburn Town,21.46,-71.14,302.15,62,40,2.6,TC,1591829864,84.2
Shushenskoye,53.33,91.94,281.15,93,40,1.0,RU,1591829708,46.4
Beringovskiy,63.05,179.32,281.56,65,57,1.87,RU,1591829895,47.14
Tomatlán,19.93,-105.25,302.9,59,64,4.23,MX,1591829895,85.55
Sikasso,10.92,-7.0,301.37,53,0,3.35,ML,1591829896,82.8
Moa,20.66,-74.94,300.36,77,100,3.48,CU,1591829897,80.98
Klaksvík,62.23,-6.59,282.15,70,87,2.6,FO,1591829897,48.2
Cabo San Lucas,22.89,-109.91,302.15,48,5,5.7,MX,1591829897,84.2
Vostok,46.49,135.88,287.45,100,100,1.65,RU,1591829897,57.74
Natal,-5.79,-35.21,298.15,94,75,3.6,BR,1591829898,77.0
Ryōtsu-minato,38.08,138.43,295.15,94,75,2.1,JP,1591829898,71.6
Morden,49.19,-98.1,294.15,40,1,8.2,CA,1591829898,69.8
Gejiu,23.31,103.16,288.7,100,97,1.41,CN,1591829898,59.99
Okulovka,58.4,33.29,290.33,97,94,1.18,RU,1591829899,62.92
Sioux Lookout,50.1,-91.92,281.15,93,90,7.7,CA,1591829899,46.4
Boké,10.94,-14.3,299.05,82,96,1.67,GN,1591829899,78.62
Scottsbluff,41.87,-103.67,298.15,23,40,4.6,US,1591829900,77.0
Mindelo,16.89,-24.98,299.15,78,20,6.7,CV,1591829900,78.8
Port Blair,11.67,92.75,300.39,78,99,8.87,IN,1591829900,81.03
Starokozache,46.34,29.99,292.15,68,47,0.35,UA,1591829900,66.2
Kambove,-10.88,26.6,284.93,63,34,1.27,CD,1591829900,53.2
Iqaluit,63.75,-68.51,276.15,74,75,9.8,CA,1591829901,37.4
Marabu,4.41,114.01,298.15,100,75,1.0,MY,1591829887,77.0
Bariloche,-41.15,-71.31,280.15,81,75,8.7,AR,1591829873,44.6
Samfya,-11.36,29.56,287.31,63,22,2.3,ZM,1591829901,57.49
Kitimat,54.05,-128.65,285.15,87,90,2.1,CA,1591829902,53.6
Chicama,-7.84,-79.15,293.21,68,37,3.98,PE,1591829902,68.11
Pakpattan,30.34,73.39,308.38,25,0,2.5,PK,1591829902,95.41
Bilma,18.69,12.92,307.05,11,0,3.66,NE,1591829902,93.02
Verkhnyaya Sinyachikha,57.98,61.67,290.61,64,19,2.0,RU,1591829903,63.43
Kuantan,3.81,103.33,298.15,94,20,0.43,MY,1591829903,77.0
Imbituba,-28.24,-48.67,292.15,100,75,3.6,BR,1591829903,66.2
Pemberton,50.32,-122.8,289.15,67,75,1.5,CA,1591829903,60.8
Esso,55.93,158.7,286.34,63,98,1.43,RU,1591829903,55.74
Fort Walton Beach,30.41,-86.62,302.59,79,75,4.6,US,1591829639,84.99
Inírida,3.87,-67.92,297.7,93,59,0.57,CO,1591829905,76.19
Demidov,55.27,31.52,291.9,94,5,2.56,RU,1591829905,65.75
Naze,28.37,129.48,300.15,100,75,6.7,JP,1591829891,80.6
Rassvet,46.83,40.75,293.31,45,16,4.63,RU,1591829905,68.29
Ginir,7.13,40.7,286.8,96,11,2.47,ET,1591829906,56.57
Mossamedes,-15.2,12.15,290.62,75,0,3.65,AO,1591829645,63.45
Strelka,58.07,93.03,285.11,79,99,3.19,RU,1591829906,53.53
Biaora,23.87,76.92,302.67,54,7,5.34,IN,1591829906,85.14
Sunbury,-37.58,144.73,278.15,93,97,4.1,AU,1591829819,41.0
Semme,46.2,1.5,285.15,87,100,1.5,FR,1591829907,53.6
Broome,42.25,-75.83,300.93,78,75,4.6,US,1591829907,82.0
Castrillón,43.4,-6.79,287.15,87,87,1.5,ES,1591829659,57.2
Quesnel,53.0,-122.5,294.15,40,40,3.6,CA,1591829763,69.8
Sault Ste. Marie,46.52,-84.33,296.15,72,20,3.6,CA,1591829907,73.4
Ancud,-41.87,-73.82,284.82,100,90,8.2,CL,1591829908,53.01
Mareeba,-17.0,145.43,296.48,81,58,2.24,AU,1591829908,73.99
Zyryanka,65.75,150.85,287.04,58,99,4.84,RU,1591829908,57.0
Delhi,28.67,77.22,308.15,66,40,1.66,IN,1591829908,95.0
Yellowknife,62.46,-114.35,282.59,57,90,3.6,CA,1591829908,48.99
Trofors,65.53,13.41,282.15,87,0,4.1,NO,1591829909,48.2
Graneros,-34.07,-70.73,285.15,54,0,1.5,CL,1591829909,53.6
Taoudenni,22.68,-3.98,310.34,15,2,5.88,ML,1591829909,98.94
Kruisfontein,-34.0,24.73,285.32,47,37,4.94,ZA,1591829909,53.91
Souillac,-20.52,57.52,295.15,73,75,8.2,MU,1591829909,71.6
Grindavik,63.84,-22.43,282.15,81,20,5.7,IS,1591829909,48.2
Vestmanna,62.16,-7.17,282.15,70,77,2.6,FO,1591829910,48.2
Davila,18.47,120.58,299.15,94,75,2.1,PH,1591829910,78.8
Władysławowo,54.79,18.4,287.59,100,90,2.6,PL,1591829910,57.99
Champerico,14.3,-91.92,305.15,62,75,3.1,GT,1591829910,89.6
Airai,-8.93,125.41,288.29,88,73,1.81,TL,1591829911,59.25
Grafton,42.21,-71.69,295.37,64,90,4.6,US,1591829911,72.0
Jiayuguan City,39.82,98.3,290.17,26,72,1.13,CN,1591829911,62.64
Geraldton,-28.77,114.6,293.15,72,90,8.2,AU,1591829911,68.0
Burnie,-41.07,145.92,284.26,89,100,0.89,AU,1591829911,52.0
São Félix do Xingu,-6.64,-51.99,297.44,78,100,1.3,BR,1591829912,75.72
Tabou,4.42,-7.35,297.55,90,100,1.83,CI,1591829912,75.92
Jacareacanga,-6.22,-57.75,298.85,74,44,0.3,BR,1591829913,78.26
Sola,-13.88,167.55,301.15,83,90,2.6,VU,1591829913,82.4
Rocha,-34.48,-54.33,283.52,87,0,1.32,UY,1591829914,50.67
Lata,40.16,-8.33,288.71,87,27,0.89,PT,1591829914,60.01
Haines Junction,60.75,-137.51,289.22,34,100,3.46,CA,1591829914,60.93
Zhezkazgan,47.8,67.71,292.16,38,11,4.31,KZ,1591829914,66.22
Kieta,-6.22,155.63,302.54,67,15,1.04,PG,1591829914,84.9
San Policarpo,12.18,125.51,299.73,82,99,2.45,PH,1591829915,79.84
Kavaratti,10.57,72.64,302.28,79,100,7.2,IN,1591829915,84.43
Kathmandu,27.72,85.32,295.15,94,75,2.1,NP,1591829915,71.6
Tagāb,34.85,69.65,295.15,19,1,7.2,AF,1591829915,71.6
Montepuez,-13.13,39.0,288.75,98,0,1.83,MZ,1591829915,60.08
Bom Jesus da Lapa,-13.26,-43.42,298.01,49,3,2.75,BR,1591829628,76.75
Hay River,60.82,-115.8,280.15,75,75,2.6,CA,1591829916,44.6
Mahon,39.89,4.27,293.15,77,40,2.6,ES,1591829916,68.0
Muros,42.78,-9.06,288.71,74,16,1.34,ES,1591829917,60.01
Rongcheng,30.63,117.85,300.37,99,71,0.77,CN,1591829917,81.0
Departamento de Maldonado,-34.67,-54.92,285.15,93,0,1.5,UY,1591829784,53.6
São Desidério,-12.36,-44.97,295.79,60,24,1.81,BR,1591829917,72.75
Porto de Moz,-1.75,-52.24,297.52,94,57,0.99,BR,1591829918,75.87
Torbay,47.67,-52.73,280.93,87,90,5.1,CA,1591829851,46.0
Araceli,10.55,119.99,301.42,76,100,3.1,PH,1591829918,82.89
Lagoa,39.05,-27.98,290.61,80,97,7.83,PT,1591829918,63.43
Saint-Pierre,-21.34,55.48,293.15,82,75,8.7,RE,1591829918,68.0
Pop,40.87,71.11,291.15,59,93,3.1,UZ,1591829919,64.4
Mukhen,48.1,136.1,288.65,95,100,0.85,RU,1591829919,59.9
Jiujiang,29.73,115.98,299.79,79,47,0.86,CN,1591829919,79.95
Rumonge,-3.97,29.44,295.59,67,57,1.58,BI,1591829920,72.39
Pathein,16.78,94.73,299.28,90,100,2.92,MM,1591829920,79.03
Gamba,-2.65,10.0,296.96,88,95,3.41,GA,1591829920,74.86
Waupun,43.63,-88.73,291.15,100,90,3.6,US,1591829920,64.4
Buala,-8.14,159.59,302.54,71,49,2.57,SB,1591829921,84.9
Maryville,35.76,-83.97,304.15,52,40,10.3,US,1591829835,87.8
Koygorodok,60.45,51.0,288.64,80,0,1.23,RU,1591829921,59.88
Dingle,11.0,122.67,298.84,86,100,1.21,PH,1591829921,78.24
Belaya Gora,68.53,146.42,283.39,52,90,4.51,RU,1591829922,50.43
Brookings,44.31,-96.8,295.15,37,40,12.9,US,1591829922,71.6
Sergeevka,53.88,67.42,291.68,62,23,1.34,KZ,1591829922,65.35
Macaúbas,-13.02,-42.7,296.14,56,23,2.07,BR,1591829922,73.38
Kawalu,-7.38,108.21,295.19,92,54,0.31,ID,1591829922,71.67
Chifeng,42.27,118.96,290.39,57,57,1.01,CN,1591829922,63.03
Ayacucho,-13.16,-74.22,295.15,30,75,3.6,PE,1591829923,71.6
Chalchuapa,13.99,-89.68,303.15,66,40,1.0,SV,1591829923,86.0
Ambilobe,-13.2,49.05,291.47,80,34,1.71,MG,1591829924,64.98
Saint-Louis,16.33,-15.0,307.15,38,80,1.0,SN,1591829924,93.2
Dostpur,26.28,82.47,306.48,36,0,2.85,IN,1591829924,91.99
Mitsamiouli,-11.38,43.28,298.2,72,2,3.84,KM,1591829925,77.09
Aktash,50.3,87.73,273.95,94,80,0.56,RU,1591829925,33.44
Muaná,-1.53,-49.22,297.74,92,40,2.21,BR,1591829925,76.26
Nagorsk,59.32,50.81,287.38,91,0,2.0,RU,1591829781,57.61
Altay,47.87,88.12,284.97,63,30,0.31,CN,1591829925,53.28
Mangai,-4.05,19.53,294.77,93,92,0.99,CD,1591829926,70.92
Rockport,28.02,-97.05,306.15,36,1,5.7,US,1591829926,91.4
Huarmey,-10.07,-78.15,292.07,69,61,3.1,PE,1591829926,66.06
Baruun-Urt,46.68,113.28,289.89,33,53,4.74,MN,1591829926,62.13
Fukuechō,32.69,128.84,297.15,94,100,11.78,JP,1591829675,75.2
Inhambane,-23.86,35.38,293.9,85,0,4.1,MZ,1591829927,69.35
Alekseyevsk,57.84,108.35,285.54,84,57,2.44,RU,1591829927,54.3
Mount Isa,-20.73,139.5,291.15,34,0,2.1,AU,1591829927,64.4
Petropavlovsk-Kamchatskiy,53.05,158.65,281.15,87,40,4.0,RU,1591829927,46.4
Sainte-Suzanne,-20.91,55.61,294.15,73,18,8.7,RE,1591829927,69.8
Ixtapa,20.7,-105.2,301.15,74,75,7.7,MX,1591829928,82.4
Puerto Escondido,15.85,-97.07,303.15,70,75,2.14,MX,1591829928,86.0
Kahului,20.89,-156.47,305.15,46,20,10.8,US,1591829928,89.6
Tiksi,71.69,128.87,274.95,85,31,3.9,RU,1591829928,35.24
San Patricio,19.22,-104.7,300.15,83,40,9.3,MX,1591829928,80.6
Severo-Kuril'sk,50.68,156.12,280.02,84,100,3.6,RU,1591829929,44.37
Carupano,10.67,-63.26,300.36,79,98,5.02,VE,1591829929,80.98
Krasnosel'kup,65.7,82.47,281.05,58,54,8.93,RU,1591829929,46.22
Chivay,-15.64,-71.6,284.48,44,99,1.78,PE,1591829929,52.39
Tuatapere,-46.13,167.68,285.93,63,69,3.58,NZ,1591829929,55.0
Taltal,-25.4,-70.48,287.14,80,25,0.61,CL,1591829930,57.18
Cabra,37.47,-4.44,292.59,54,89,2.0,ES,1591829930,66.99
Kayerkan,69.35,87.76,276.15,93,90,7.0,RU,1591829930,37.4
Rio das Pedras,-22.84,-47.61,297.15,64,90,1.66,BR,1591829931,75.2
Kasamwa,-2.85,32.43,292.2,81,77,0.55,TZ,1591829931,66.29
Santo Antônio do Sudoeste,-26.07,-53.73,292.55,96,76,0.64,BR,1591829868,66.92
Grande Prairie,55.17,-118.8,294.15,30,75,5.1,CA,1591829931,69.8
Belmonte,-15.86,-38.88,298.15,83,20,2.6,BR,1591829931,77.0
Xining,36.62,101.77,284.76,72,31,1.16,CN,1591829932,52.9
Lavrentiya,65.58,-171.0,280.28,77,34,2.67,RU,1591829932,44.83
Loukhi,66.08,33.04,280.13,95,0,1.1,RU,1591829932,44.56
Ust-Nera,64.57,143.2,284.31,66,100,1.24,RU,1591829932,52.09
Labuhan,-6.88,112.21,297.14,89,60,2.56,ID,1591829932,75.18
Flagstaff,35.2,-111.65,299.82,2,0,1.34,US,1591829893,80.01
Krasnoborsk,61.56,45.93,290.08,82,65,0.85,RU,1591829933,62.47
Pangkalanbuun,-2.68,111.62,296.54,98,47,0.99,ID,1591829933,74.1
Camocim,-2.9,-40.84,298.68,87,70,5.15,BR,1591829933,77.95
Juxtlahuaca,17.43,-99.15,302.89,51,82,2.87,MX,1591829933,85.53
Hurghada,27.26,33.81,304.15,15,0,7.2,EG,1591829934,87.8
Hirado,33.36,129.55,299.15,88,75,6.7,JP,1591829934,78.8
Ondjiva,-17.07,15.73,286.48,38,0,2.52,AO,1591829934,55.99
Pindiga,9.98,10.93,298.18,73,67,2.5,NG,1591829934,77.05
Guerrero Negro,27.98,-114.06,304.38,13,0,7.61,MX,1591829935,88.21
Waynesville,35.49,-82.99,294.82,83,24,1.79,US,1591829935,71.01
Travnik,44.23,17.67,284.07,83,1,1.74,BA,1591829935,51.66
Tortolì,39.93,9.66,290.15,45,20,1.5,IT,1591829935,62.6
Saint-Augustin,51.23,-58.65,281.63,54,35,8.11,CA,1591829936,47.26
Isangel,-19.55,169.27,299.15,65,59,5.1,VU,1591829937,78.8
Alexandria,31.22,29.96,296.15,83,19,3.1,EG,1591829937,73.4
Novyy Starodub,48.52,33.17,293.15,56,0,2.0,UA,1591829937,68.0
Nagato,34.38,131.2,295.15,100,90,6.2,JP,1591829937,71.6
Aquiraz,-3.9,-38.39,299.15,83,32,2.6,BR,1591829937,78.8
Humaitá,-7.51,-63.02,300.45,69,83,0.78,BR,1591829938,81.14
Bandarbeyla,9.49,50.81,301.02,68,38,12.45,SO,1591829938,82.17
Sibolga,1.74,98.78,298.35,75,92,1.25,ID,1591829938,77.36
Srīvardhan,18.03,73.02,300.89,80,100,1.61,IN,1591829890,81.93
Arona,28.1,-16.68,295.37,68,75,7.7,ES,1591829938,72.0
Bubaque,11.28,-15.83,300.29,82,66,5.96,GW,1591829939,80.85
Koungou,-12.73,45.2,298.15,73,75,3.6,YT,1591829939,77.0
Lancaster,40.25,-76.25,303.15,62,1,7.7,US,1591829665,86.0
Vetiş,47.8,22.77,289.26,100,4,2.1,RO,1591829939,61.0
Byron Bay,-28.65,153.62,290.15,93,90,3.6,AU,1591829412,62.6
Talara,-4.58,-81.27,291.79,85,4,7.5,PE,1591829940,65.55
Saint Paul Harbor,57.79,-152.41,283.15,87,90,3.1,US,1591829940,50.0
Ponta do Sol,32.67,-17.1,292.15,68,40,3.1,PT,1591829940,66.2
Najrān,17.49,44.13,301.15,26,19,1.5,SA,1591829940,82.4
Decatur,39.84,-88.95,294.15,64,90,10.8,US,1591829940,69.8
Dezful,32.38,48.41,304.54,12,0,1.81,IR,1591829941,88.5
Yangi Marg`ilon,40.43,71.72,291.15,59,100,3.1,UZ,1591829942,64.4
Kikwit,-5.04,18.82,295.34,92,56,0.86,CD,1591829942,71.94
Dukat,62.55,155.55,284.63,57,79,4.95,RU,1591829942,52.66
Mackay,-21.15,149.2,293.15,93,75,2.1,AU,1591829812,68.0
Vorkuta,67.5,64.0,278.59,66,100,1.97,RU,1591829943,41.79
Omboué,-1.57,9.26,296.68,89,76,3.46,GA,1591829943,74.35
West Bay,19.37,-81.42,304.15,74,40,4.1,KY,1591829943,87.8
Juneau,58.3,-134.42,291.15,39,75,3.1,US,1591829933,64.4
Kralendijk,12.15,-68.27,301.15,83,100,5.7,BQ,1591829939,82.4
Barra de Tecoanapa,16.52,-98.75,302.14,68,74,4.7,MX,1591829944,84.18
Ilo,-17.64,-71.34,290.19,81,100,1.06,PE,1591829944,62.67
Zlynka,52.43,31.74,296.15,60,13,3.0,RU,1591829944,73.4
Banjarmasin,-3.32,114.59,296.53,93,50,1.15,ID,1591829944,74.08
Egvekinot,66.32,-179.17,285.35,53,18,1.96,RU,1591829945,53.96
Noumea,-22.28,166.46,297.15,64,62,2.6,NC,1591829838,75.2
Ponta Delgada,37.73,-25.67,291.15,77,75,5.1,PT,1591829945,64.4
Tura,25.52,90.22,296.87,91,67,1.84,IN,1591829945,74.7
Bagdarin,54.43,113.6,285.19,56,57,1.59,RU,1591829945,53.67
Ankara,39.92,32.85,292.15,72,75,2.1,TR,1591829946,66.2
Rey Bouba,8.67,14.18,297.24,86,98,0.21,CM,1591829946,75.36
Karratha,-20.74,116.85,295.99,66,76,3.97,AU,1591829811,73.11
Port Augusta,-32.5,137.77,278.15,57,54,3.1,AU,1591829946,41.0
Dutlwe,-23.98,23.9,287.13,38,1,4.58,BW,1591829946,57.16
Shimoda,34.67,138.95,295.93,88,73,0.45,JP,1591829947,73.0
Kokopo,-4.35,152.26,301.55,70,62,0.46,PG,1591829947,83.12
Valparaíso,-33.04,-71.63,285.15,62,0,1.0,CL,1591829671,53.6
Fortuna,40.6,-124.16,296.48,82,20,6.7,US,1591829947,73.99
San Miguel de Cozumel,20.51,-86.95,304.15,66,75,3.6,MX,1591829814,87.8
Pevek,69.7,170.31,274.35,91,100,5.8,RU,1591829948,34.16
Francistown,-21.17,27.51,286.78,48,0,2.45,BW,1591829948,56.53
Comodoro Rivadavia,-45.87,-67.5,284.15,50,100,3.6,AR,1591829814,51.8
Kalmunai,7.42,81.82,300.13,77,87,1.9,LK,1591829949,80.56
Kibuye,-2.06,29.35,291.72,78,99,1.42,RW,1591829950,65.43
Weston,26.1,-80.4,305.37,57,82,4.5,US,1591829950,90.0
Lakselv,70.05,24.97,281.15,65,97,11.8,NO,1591829950,46.4
Cabedelo,-6.98,-34.83,297.15,100,40,1.5,BR,1591829950,75.2
Mezen',65.85,44.24,276.43,93,66,3.13,RU,1591829950,37.9
Timbiquí,2.77,-77.67,298.35,89,100,0.89,CO,1591829951,77.36
Ribas do Rio Pardo,-20.44,-53.76,296.42,60,0,1.6,BR,1591829951,73.89
Taree,-31.9,152.47,289.82,100,90,2.6,AU,1591829951,62.01
College,64.86,-147.8,297.04,27,40,1.5,US,1591829951,75.0
Kiryat Gat,31.61,34.76,295.37,77,0,1.15,IL,1591829760,72.0
Manokwari,-0.87,134.08,301.08,69,97,1.01,ID,1591829951,82.27
Yibin,28.77,104.62,298.7,73,96,0.57,CN,1591829952,77.99
Taguatinga,-12.39,-46.57,297.65,53,4,2.49,BR,1591829952,76.1
Slave Lake,55.28,-114.77,291.15,55,1,4.1,CA,1591829952,64.4
Ola,59.58,151.28,282.82,71,100,1.15,RU,1591829952,49.41
Šipovo,44.28,17.08,284.04,83,1,2.06,BA,1591829952,51.6
Lipari,38.47,14.95,290.93,74,7,3.58,IT,1591829953,64.0
Saint-Tite,46.73,-72.57,296.15,60,75,4.6,CA,1591829953,73.4
Margate,51.38,1.39,287.59,74,100,1.79,GB,1591829953,57.99
Provideniya,64.38,-173.3,286.15,62,40,6.0,RU,1591829953,55.4
Luján,-34.57,-59.1,287.04,86,0,1.33,AR,1591829953,57.0
Agirish,61.92,63.02,291.06,50,0,2.34,RU,1591829954,64.24
Constitución,-35.33,-72.42,283.93,76,99,2.39,CL,1591829954,51.4
Blankenberge,51.31,3.13,287.59,76,98,3.6,BE,1591829954,57.99
Naples,40.83,14.25,290.93,77,28,2.1,IT,1591829954,64.0
High Prairie,55.43,-116.49,293.63,45,17,3.84,CA,1591829955,68.86
Namwala,-15.75,26.44,284.74,73,0,1.78,ZM,1591829955,52.86
Balkanabat,39.51,54.37,302.76,14,0,7.67,TM,1591829955,85.3
São Gabriel da Cachoeira,-0.13,-67.09,297.76,95,93,0.39,BR,1591829955,76.3
Sulangan,11.14,123.72,301.47,74,100,3.11,PH,1591829957,82.98
Carballo,43.21,-8.69,287.59,80,57,1.34,ES,1591829957,57.99
Mookane,-23.69,26.66,288.15,40,0,3.17,BW,1591829957,59.0
Rozsypne,48.15,38.58,292.51,50,3,5.41,UA,1591829957,66.85
Pangnirtung,66.15,-65.71,276.15,85,75,6.2,CA,1591829957,37.4
Bereda,43.27,-7.54,285.37,89,71,1.34,ES,1591829958,54.0
Kulhudhuffushi,6.62,73.07,301.76,79,98,5.57,MV,1591829958,83.5
Port Alberni,49.24,-124.8,291.48,71,56,2.89,CA,1591829697,64.99
Dwārka,22.24,68.97,302.82,79,1,5.48,IN,1591829958,85.41
Poya,-21.35,165.15,297.08,66,46,3.15,NC,1591829959,75.07
Jambi City,-1.6,103.62,296.56,97,69,1.28,ID,1591829959,74.14
Malindi,-3.22,40.12,298.37,78,34,5.79,KE,1591829959,77.4
The Pas,53.83,-101.25,291.15,52,1,5.7,CA,1591829959,64.4
Baharly,38.44,57.43,299.65,17,0,2.27,TM,1591829959,79.7
Pahrump,36.21,-115.98,309.26,7,0,3.13,US,1591829960,97.0
Todos Santos,23.45,-110.22,292.59,86,1,0.45,MX,1591829960,66.99
Passo de Camaragibe,-9.24,-35.49,297.15,94,20,1.41,BR,1591829960,75.2
Srednekolymsk,67.45,153.68,283.36,64,68,6.43,RU,1591829960,50.38
Paceco,37.98,12.56,292.15,82,40,4.1,IT,1591829961,66.2
Usakos,-22.0,15.6,279.45,86,2,1.3,NA,1591829961,43.34
Ghanzi,-21.57,21.78,288.03,36,0,4.52,BW,1591829704,58.78
Luanda,-8.84,13.23,296.15,83,40,3.1,AO,1591829667,73.4
Zhicheng,30.3,111.5,297.04,92,64,0.3,CN,1591829962,75.0
Ordu,40.91,37.68,296.15,78,75,5.7,TR,1591829962,73.4
Nelson Bay,-32.72,152.15,288.15,100,90,2.6,AU,1591829962,59.0
Port Hardy,50.7,-127.42,290.15,63,75,5.1,CA,1591829963,62.6
Kedrovyy,56.17,91.82,284.15,76,100,2.45,RU,1591829963,51.8
Cabinda,-5.55,12.2,296.61,87,64,3.65,AO,1591829964,74.23
Aswān,24.09,32.91,302.48,14,0,3.5,EG,1591829964,84.79
Chenzhou,25.8,113.03,297.89,89,100,2.01,CN,1591829964,76.53
São Raimundo Nonato,-9.02,-42.7,298.32,59,16,2.51,BR,1591829964,77.31
Fantino,19.12,-70.3,304.15,55,20,4.1,DO,1591829964,87.8
Guatire,10.48,-66.54,297.59,82,100,1.79,VE,1591829697,75.99
Naryan-Mar,67.67,53.09,277.04,75,93,4.23,RU,1591829965,39.0
Namatanai,-3.67,152.43,301.92,72,80,2.19,PG,1591829965,83.79
Takoradze,4.88,-1.76,299.09,85,99,5.52,GH,1591829965,78.69
Safaga,26.73,33.94,304.15,15,0,7.2,EG,1591829965,87.8
Pokhara,28.23,83.98,295.72,58,16,2.27,NP,1591829966,72.63
Ahipara,-35.17,173.17,288.25,60,93,1.13,NZ,1591829966,59.18
Rumoi,43.93,141.64,293.59,71,100,2.66,JP,1591829966,68.79
Phan Thiet,10.93,108.1,298.42,86,90,2.13,VN,1591829966,77.49
Yichang,30.71,111.28,295.93,86,31,0.46,CN,1591829844,73.0
Shingū,33.73,135.98,296.15,100,75,6.7,JP,1591829966,73.4
Antofagasta,-23.65,-70.4,288.15,82,90,3.1,CL,1591829941,59.0
Hofn,64.25,-15.21,282.05,90,19,0.92,IS,1591829967,48.02
San Cristobal,7.77,-72.22,299.15,78,75,4.1,VE,1591829678,78.8
Koutiala,12.39,-5.46,304.11,43,12,4.44,ML,1591829967,87.73
Laas,46.62,10.7,282.59,100,75,0.21,IT,1591829967,48.99
Birin,26.89,88.07,290.52,97,11,1.39,NP,1591829968,63.27
Santarém,-2.44,-54.71,299.15,88,20,1.0,BR,1591829968,78.8
Bud,39.45,-86.18,297.59,50,90,9.3,US,1591829968,75.99
Lakewood,39.7,-105.08,298.15,22,44,0.89,US,1591829856,77.0
Igarka,67.47,86.58,280.89,72,43,8.54,RU,1591829968,45.93
Isla Mujeres,21.23,-86.73,303.15,70,40,5.1,MX,1591829969,86.0
Labytnangi,66.66,66.42,279.42,72,100,3.02,RU,1591829716,43.29
Pangody,65.85,74.49,279.5,61,16,5.4,RU,1591829969,43.43
Verkhoyansk,67.54,133.38,282.28,57,95,1.7,RU,1591829969,48.43
Bonham,33.58,-96.18,302.59,23,1,4.1,US,1591829969,84.99
Vardø,70.37,31.11,281.15,70,75,8.7,NO,1591829970,46.4
Okhotsk,59.38,143.3,280.43,90,100,6.54,RU,1591829970,45.1
Natchez,31.56,-91.4,303.15,45,1,4.1,US,1591829895,86.0
Richards Bay,-28.78,32.04,295.12,35,57,6.12,ZA,1591829970,71.55
Talnakh,69.49,88.4,276.15,93,90,7.0,RU,1591829970,37.4
Ocampo,21.65,-101.5,296.73,39,55,10.05,MX,1591829971,74.44
Shenjiamen,29.96,122.3,296.38,97,98,1.86,CN,1591829971,73.81
Mtwara,-10.27,40.18,295.15,88,20,3.6,TZ,1591829971,71.6
Beloha,-25.17,45.05,290.03,79,0,3.84,MG,1591829971,62.38
Acarí,-15.43,-74.62,292.16,64,100,1.5,PE,1591829972,66.22
Coahuayana Viejo,18.73,-103.68,301.15,69,40,7.7,MX,1591829972,82.4
Hailey,43.52,-114.32,296.15,28,40,5.1,US,1591829972,73.4
Rūdbār,30.15,62.6,297.06,20,0,6.53,AF,1591829972,75.04
Havre-St-Pierre,50.23,-63.6,282.15,61,20,5.7,CA,1591829972,48.2
Mahanoro,-19.9,48.8,292.32,85,31,1.69,MG,1591829972,66.51
Hambantota,6.12,81.12,300.48,80,96,8.87,LK,1591829973,81.19
Barpāli,21.2,83.58,303.54,62,77,2.95,IN,1591829973,86.7
Leh,34.17,77.58,281.9,52,4,2.76,IN,1591829973,47.75
Nador,35.17,-2.93,296.15,33,33,5.1,MA,1591829973,73.4
Alta Floresta,-9.88,-56.09,297.14,76,9,1.38,BR,1591829973,75.18
Kutulik,53.35,102.78,282.02,85,88,4.86,RU,1591829974,47.97
Dalbandin,28.89,64.41,300.34,14,0,3.11,PK,1591829974,80.94
Kontagora,10.4,5.47,298.0,76,18,1.96,NG,1591829974,76.73
Humberto de Campos,-2.6,-43.46,298.02,91,100,1.91,BR,1591829974,76.77
Ampanihy,-24.7,44.75,290.74,68,0,2.79,MG,1591829974,63.66
Yumen,40.28,97.2,289.92,28,96,0.13,CN,1591829975,62.19
Schlitz,50.67,9.56,287.04,98,100,1.94,DE,1591829975,57.0
Methóni,36.82,21.7,291.15,82,40,5.98,GR,1591829975,64.4
Port-Cartier,50.03,-66.87,283.15,65,90,5.1,CA,1591829975,50.0
Itarema,-2.92,-39.92,298.83,86,32,4.57,BR,1591829975,78.22
San Juan de Arama,3.35,-73.89,297.08,87,33,0.39,CO,1591829976,75.07
Pundaguitan,6.37,126.17,300.86,79,100,3.88,PH,1591829976,81.88
Santa Rosa,14.31,121.11,299.15,94,90,2.1,PH,1591829889,78.8
Praia,14.92,-23.51,299.15,74,0,5.1,CV,1591829977,78.8
Lábrea,-7.26,-64.8,300.45,67,70,0.37,BR,1591829744,81.14
Goryachiy Klyuch,44.63,39.13,296.15,78,15,3.0,RU,1591829978,73.4
Necochea,-38.55,-58.74,283.81,67,0,1.73,AR,1591829978,51.19
Kargasok,59.06,80.86,288.85,94,19,4.22,RU,1591829978,60.26
Progreso,21.28,-89.67,308.15,50,75,5.1,MX,1591829978,95.0
Aragarças,-15.9,-52.25,296.05,57,0,0.28,BR,1591829978,73.22
Tavda,58.04,65.27,290.28,69,0,1.69,RU,1591829978,62.83
Bobrovka,54.05,61.75,291.88,55,1,2.29,RU,1591829979,65.71
San Isidro,-12.12,-77.05,292.15,72,75,4.6,PE,1591829979,66.2
Muscat,23.61,58.59,305.15,79,10,1.5,OM,1591829979,89.6
Baykit,61.67,96.37,284.93,73,98,3.22,RU,1591829979,53.2
Bambanglipuro,-7.95,110.28,296.8,89,97,2.05,ID,1591829979,74.57
At-Bashi,41.17,75.81,279.84,62,72,0.51,KG,1591829980,44.04
Mount Gambier,-37.83,140.77,280.15,93,90,2.1,AU,1591829980,44.6
Simdega,22.62,84.52,301.68,64,55,1.7,IN,1591829980,83.35
Georgiyevka,43.04,74.71,286.15,76,56,2.0,KZ,1591829980,55.4
Putai,46.66,1.99,284.15,93,100,1.5,FR,1591829980,51.8
Bakchar,57.02,82.07,285.57,85,35,3.44,RU,1591829982,54.36
Ubari,26.59,12.78,307.29,22,63,8.37,LY,1591829983,93.45
Brownsville,25.9,-97.5,303.15,79,20,6.7,US,1591829778,86.0
Kupang,-10.17,123.58,298.21,77,47,5.41,ID,1591829983,77.11
Yugorsk,61.31,63.33,291.58,51,0,1.7,RU,1591829983,65.17
